[
  {
    "id": "c1",
    "name": "Ajith Salon",
    "business": "Ajith Salon",
    "sector": "Hair Salon",
    "postcode": "CR7 6BB",
    "address": "Thornton Heath, CR7 6BB",
    "lat": 51.390563,
    "lng": -0.120815,
    "status": "Lead",
    "services": [],
    "monthlySpend": 0,
    "notes": "Hair salon. Instagram @ajiths_beauty_salon",
    "contact": "+44 7446 861183",
    "addedAt": "2026-05-10"
  },
  {
    "id": "c2",
    "name": "Pablo Barber Shop",
    "business": "Pablo Barber Shop",
    "sector": "Barber",
    "postcode": "CR8 2LP",
    "address": "Purley, CR8 2LP",
    "lat": 51.339047,
    "lng": -0.116562,
    "status": "Lead",
    "services": [],
    "monthlySpend": 0,
    "notes": "Barber. Instagram @pablo_barber_purley (1.7k). Facebook.",
    "contact": "+44 20 8062 7017",
    "addedAt": "2026-05-10"
  },
  {
    "id": "c3",
    "name": "La Petite Boulangerie",
    "business": "La Petite Boulangerie",
    "sector": "Bakery",
    "postcode": "SM3 8BL",
    "address": "Cheam, SM3 8BL",
    "lat": 51.358899,
    "lng": -0.216868,
    "status": "Lead",
    "services": [],
    "monthlySpend": 0,
    "notes": "Bakery. Instagram @lapetiteboulangeriecheam (1.5k, 286 posts). Facebook.",
    "contact": "07950 884337",
    "addedAt": "2026-05-10"
  },
  {
    "id": "c4",
    "name": "Bawarchi Indian Street Food",
    "business": "Bawarchi Indian Street Food",
    "sector": "Restaurant",
    "postcode": "CR7 7HW",
    "address": "Thornton Heath, CR7 7HW",
    "lat": 51.393094,
    "lng": -0.11374,
    "status": "Lead",
    "services": [],
    "monthlySpend": 0,
    "notes": "Indian restaurant. Facebook only.",
    "contact": "+44 7882 268843",
    "addedAt": "2026-05-10"
  },
  {
    "id": "c5",
    "name": "AVA Barber",
    "business": "AVA Barber (Ceylon Cottage)",
    "sector": "Barber",
    "postcode": "SM6 0JY",
    "address": "Wallington, SM6 0JY",
    "lat": 51.360169,
    "lng": -0.149754,
    "status": "Lead",
    "services": [],
    "monthlySpend": 0,
    "notes": "Barber. Facebook only.",
    "contact": "+44 7308 036330",
    "addedAt": "2026-05-10"
  },
  {
    "id": "c6",
    "name": "Mr Phone and Vape",
    "business": "Mr Phone and Vape",
    "sector": "Phone Repair",
    "postcode": "CR8 2BP",
    "address": "Purley, CR8 2BP",
    "lat": 51.33908,
    "lng": -0.115786,
    "status": "Lead",
    "services": [],
    "monthlySpend": 0,
    "notes": "Phone repair & vape shop. No social media — high opportunity.",
    "contact": "+44 7587 805027",
    "addedAt": "2026-05-10"
  },
  {
    "id": "c7",
    "name": "Hadi's Barbers",
    "business": "Hadi's Barbers",
    "sector": "Barber",
    "postcode": "SM6 0HU",
    "address": "Wallington, SM6 0HU",
    "lat": 51.359153,
    "lng": -0.150326,
    "status": "Lead",
    "services": [],
    "monthlySpend": 0,
    "notes": "Barber. Instagram @hadisbarber. Facebook.",
    "contact": "+44 20 3665 5427",
    "addedAt": "2026-05-10"
  },
  {
    "id": "c8",
    "name": "Fade Empire",
    "business": "Fade Empire",
    "sector": "Barber",
    "postcode": "CR8 2HA",
    "address": "Purley, CR8 2HA",
    "lat": 51.338026,
    "lng": -0.116245,
    "status": "Lead",
    "services": [],
    "monthlySpend": 0,
    "notes": "Barber. Walk-in only. No socials — high opportunity.",
    "contact": "",
    "addedAt": "2026-05-10"
  },
  {
    "id": "c9",
    "name": "Santorini Gyro",
    "business": "Santorini Gyro",
    "sector": "Restaurant",
    "postcode": "CR8 2AY",
    "address": "Purley, CR8 2AY",
    "lat": 51.337934,
    "lng": -0.115029,
    "status": "Lead",
    "services": [],
    "monthlySpend": 0,
    "notes": "Greek restaurant. Instagram @santorini.gyro",
    "contact": "+44 20 3556 1955",
    "addedAt": "2026-05-10"
  },
  {
    "id": "c10",
    "name": "Happy Fish Bar",
    "business": "Happy Fish Bar",
    "sector": "Fish & Chips",
    "postcode": "CR0 3JJ",
    "address": "Croydon, CR0 3JJ",
    "lat": 51.382486,
    "lng": -0.115125,
    "status": "Lead",
    "services": [],
    "monthlySpend": 0,
    "notes": "Fish & chips. No socials — high opportunity.",
    "contact": "+44 20 3731 6721",
    "addedAt": "2026-05-10"
  },
  {
    "id": "c11",
    "name": "Albz Barbers",
    "business": "Albz Barbers",
    "sector": "Barber",
    "postcode": "CR2 6AJ",
    "address": "South Croydon, CR2 6AJ",
    "lat": 51.351188,
    "lng": -0.099865,
    "status": "Lead",
    "services": [],
    "monthlySpend": 0,
    "notes": "Barber. Instagram @albz_barbers (6,118 followers!). Facebook. Strong existing presence.",
    "contact": "+44 20 3623 8791",
    "addedAt": "2026-05-10"
  },
  {
    "id": "c12",
    "name": "Fone & Vape Off Licence",
    "business": "Fone & Vape Off Licence",
    "sector": "Phone Repair",
    "postcode": "CR8 2BP",
    "address": "Purley, CR8 2BP",
    "lat": 51.33958,
    "lng": -0.115986,
    "status": "Lead",
    "services": [],
    "monthlySpend": 0,
    "notes": "Vape & phone shop. No socials — high opportunity.",
    "contact": "+44 7777 909067",
    "addedAt": "2026-05-10"
  }
]
